[{"name":"Hiltl","address":"Sihlstrasse 28","lat":47.3731727716,"lng":8.5368314644,"location":{"type":"Point","coordinates":[8.5368314644,47.3731727716]}},{"name":"Tibits","address":"Seefeldstr. 2","lat":47.3650855841,"lng":8.5478950356,"location":{"type":"Point","coordinates":[8.5478950356,47.3650855841]}},{"name":"Dachterrasse Hiltl","address":"Bahnhofstrasse 88","lat":47.3756855778,"lng":8.5396500613,"location":{"type":"Point","coordinates":[8.5396500613,47.3756855778]}},{"name":"Hiltl Sihlpost","address":"Europaallee","lat":47.3777227153,"lng":8.5357889773,"location":{"type":"Point","coordinates":[8.5357889773,47.3777227153]}},{"name":"Roots and Friends","address":"Lintheschergasse 15","lat":47.3762376453,"lng":8.5387086132,"location":{"type":"Point","coordinates":[8.5387086132,47.3762376453]}},{"name":"Marktk\u00fcche","address":"Feldstrasse 98","lat":47.3787534041,"lng":8.5231029052,"location":{"type":"Point","coordinates":[8.5231029052,47.3787534041]}},{"name":"Mohini","address":"Weinbergstrasse 15","lat":47.3782669251,"lng":8.5442942078,"location":{"type":"Point","coordinates":[8.5442942078,47.3782669251]}},{"name":"tibits","address":"Tramstrasse 2","lat":47.4090652962,"lng":8.5464864871,"location":{"type":"Point","coordinates":[8.5464864871,47.4090652962]}},{"name":"Hiltl Langstrasse","address":null,"lat":47.3778990995,"lng":8.5267736185,"location":{"type":"Point","coordinates":[8.5267736185,47.3778990995]}},{"name":"Hiltl Vegi Metzg","address":"St. Annagasse 18","lat":47.3735364823,"lng":8.5363251449,"location":{"type":"Point","coordinates":[8.5363251449,47.3735364823]}},{"name":"tibits NZZ Bistro","address":"Falkenstrasse 12","lat":47.3648005589,"lng":8.5475224437,"location":{"type":"Point","coordinates":[8.5475224437,47.3648005589]}},{"name":"Samses","address":"Langstrasse 231","lat":47.3840420426,"lng":8.5309581763,"location":{"type":"Point","coordinates":[8.5309581763,47.3840420426]}},{"name":"Hiltl Pflanzbar","address":"Talstrasse 62","lat":47.3704538697,"lng":8.5357483952,"location":{"type":"Point","coordinates":[8.5357483952,47.3704538697]}},{"name":"Vegan Kitchen & Bakery","address":"M\u00fcllerstrasse, 64","lat":47.3760477346,"lng":8.5287920073,"location":{"type":"Point","coordinates":[8.5287920073,47.3760477346]}},{"name":"Beetnut","address":"Lagerstrasse 16B","lat":47.3775789919,"lng":8.5333408484,"location":{"type":"Point","coordinates":[8.5333408484,47.3775789919]}},{"name":"Eva's Apples Bioladen und Take away","address":"Weinbergstrasse 168","lat":47.3914438425,"lng":8.5387818829,"location":{"type":"Point","coordinates":[8.5387818829,47.3914438425]}},{"name":"Cartel","address":"Milit\u00e4rstrasse 14","lat":47.3763270499,"lng":8.5330420846,"location":{"type":"Point","coordinates":[8.5330420846,47.3763270499]}},{"name":"Hitzberger","address":"Bahnhofplatz 15","lat":47.3779421721,"lng":8.5400960385,"location":{"type":"Point","coordinates":[8.5400960385,47.3779421721]}},{"name":"Maison Blunt","address":"Gasometerstr. 5","lat":47.3837213229,"lng":8.5283471712,"location":{"type":"Point","coordinates":[8.5283471712,47.3837213229]}},{"name":"Dapur Indonesia","address":"Schaffhauserstrasse 373","lat":47.4117579586,"lng":8.5465792065,"location":{"type":"Point","coordinates":[8.5465792065,47.4117579586]}},{"name":"Alnatura","address":"Kappenb\u00fchlweg 5","lat":47.4031565705,"lng":8.4980001186,"location":{"type":"Point","coordinates":[8.4980001186,47.4031565705]}},{"name":"Lily's Stomach Supply","address":"Langstr. 197","lat":47.382535,"lng":8.52954,"location":{"type":"Point","coordinates":[8.52954,47.382535]}},{"name":"Asiaway","address":"Schwamendingenstr. 10","lat":47.4080931253,"lng":8.5472749518,"location":{"type":"Point","coordinates":[8.5472749518,47.4080931253]}},{"name":"Wurst & Moritz","address":"Hardstr. 318","lat":47.3904815376,"lng":8.522155293,"location":{"type":"Point","coordinates":[8.522155293,47.3904815376]}},{"name":"Ah-Hua II","address":"Ankerstr. 110","lat":47.376233709,"lng":8.5277572379,"location":{"type":"Point","coordinates":[8.5277572379,47.376233709]}},{"name":"Bona Dea","address":"Bahnhofplatz 15","lat":47.3771746467,"lng":8.5407723202,"location":{"type":"Point","coordinates":[8.5407723202,47.3771746467]}},{"name":"Bad Hunter","address":"Jelmoli food court","lat":47.374102,"lng":8.536708,"location":{"type":"Point","coordinates":[8.536708,47.374102]}},{"name":"Hiltl Mythenquai","address":null,"lat":47.3537033832,"lng":8.5348931694,"location":{"type":"Point","coordinates":[8.5348931694,47.3537033832]}},{"name":"Klara\u2019s kitchen","address":"Universit\u00e4tstrasse 17","lat":47.3787479609,"lng":8.5480484434,"location":{"type":"Point","coordinates":[8.5480484434,47.3787479609]}},{"name":"Roots","address":"Am Schanzengraben 19","lat":47.368661,"lng":8.535613,"location":{"type":"Point","coordinates":[8.535613,47.368661]}}]